# LAS Format Log File (paleo mkproject mini fixture)
~Version Information
VERS.   2.0:
WRAP.   NO:
~Well
STRT .m   1500.000 :
STOP .m   1699.500 :
STEP .m   0.500 :
NULL .  -99999 :
COMP.           : PALEO FIXTURE
WELL.  A1  : WELL
DATE.  01/01/2026 00:00:00  : DATE
~Curve
DEPT .m                   : DEPTH
GR .api                   : GAMMA RAY
DT .us/m                 : SONIC
RHOB .g/cm3              : DENSITY
NPHI .v/v                : NEUTRON
~Parameter
# ====================================
~Ascii
# ...
   1556.000        115.995        263.627          2.490          0.067
   1556.500         52.912        205.995          2.578          0.295
   1557.000        106.936        214.585          2.243          0.306
   1557.500         54.551        221.728          2.203          0.278
   1558.000         93.360        265.129          2.251          0.248
   1558.500        111.314        227.418          2.648          0.226
   1559.000         40.225        244.676          2.512          0.172
   1559.500         66.988        267.702          2.259          0.108
   1560.000         50.959        279.764          2.520          0.269
   1560.500         70.922        254.577          2.348          0.230
   1561.000        100.079        278.277          2.385          0.345
   1561.500         82.516        279.116          2.551          0.079
   1562.000         59.556        228.658          2.679          0.346
   1562.500         69.466        218.189          2.405          0.062
   1563.000        118.933        274.132          2.494          0.177
   1563.500         99.755        236.179          2.646          0.160
   1564.000         99.191        241.922          2.228          0.334
   1564.500        127.393        261.704          2.221          0.290
   1565.000         60.369        227.469          2.577          0.338
   1565.500         71.913        279.333          2.523          0.261
   1566.000        102.930        233.651          2.258          0.080
   1566.500         91.611        236.308          2.341          0.253
   1567.000         62.877        225.001          2.444          0.168
   1567.500         50.539        204.257          2.536          0.289
   1568.000        100.619        276.926          2.419          0.082
   1568.500         79.247        235.920          2.424          0.218
   1569.000         83.594        259.926          2.451          0.136
   1569.500        129.273        236.861          2.390          0.208
   1570.000         62.630        258.811          2.386          0.344
   1570.500        121.389        252.194          2.211          0.235
   1571.000         42.064        206.923          2.460          0.095
   1571.500         87.591        208.293          2.604          0.091
   1572.000         43.611        255.354          2.330          0.133
   1572.500        106.842        229.519          2.491          0.189
   1573.000         63.980        277.160          2.319          0.241
   1573.500        134.563        249.933          2.481          0.180
   1574.000        126.240        266.588          2.387          0.135
   1574.500        125.876        200.018          2.573          0.167
   1575.000        124.939        273.287          2.319          0.264
   1575.500         52.597        208.395          2.578          0.339
   1576.000         64.970        271.531          2.627          0.111
   1576.500        113.975        258.547          2.256          0.201
   1577.000         94.190        204.437          2.674          0.308
   1577.500         41.190        260.530          2.676          0.113
   1578.000        129.784        203.184          2.519          0.151
   1578.500         95.588        217.699          2.293          0.337
   1579.000         78.384        261.230          2.479          0.127
   1579.500         60.681        248.421          2.244          0.284
   1580.000         49.939        243.533          2.405          0.137
   1580.500        127.880        222.799          2.363          0.080
   1581.000         65.325        230.769          2.687          0.341
   1581.500         75.997        214.386          2.413          0.223
   1582.000         57.721        238.549          2.466          0.092
   1582.500         44.479        246.907          2.539          0.258
   1583.000         67.720        271.641          2.575          0.091
   1583.500        100.405        215.977          2.440          0.052
   1584.000        132.195        233.187          2.691          0.239
   1584.500         99.228        225.819          2.257          0.076
   1585.000         66.925        248.920          2.211          0.097
   1585.500        139.264        220.982          2.681          0.097
   1586.000         42.951        206.385          2.344          0.158
   1586.500        109.937        273.063          2.284          0.172
   1587.000         56.702        269.160          2.424          0.314
   1587.500        133.770        242.422          2.559          0.347
   1588.000         93.857        206.068          2.438          0.342
   1588.500        102.128        254.903          2.689          0.270
   1589.000         86.965        255.403          2.275          0.286
   1589.500        104.710        233.552          2.529          0.204
   1590.000         66.809        244.144          2.697          0.152
   1590.500         52.790        245.336          2.308          0.144
   1591.000        107.528        242.175          2.522          0.105
   1591.500         96.212        222.862          2.550          0.348
   1592.000         65.479        271.504          2.531          0.275
   1592.500        134.127        261.095          2.215          0.266
   1593.000        111.858        270.483          2.592          0.167
   1593.500        119.491        209.077          2.555          0.085
   1594.000         59.067        233.026          2.501          0.079
   1594.500         57.305        236.646          2.692          0.069
   1595.000         80.827        202.824          2.546          0.326
   1595.500         96.605        216.155          2.415          0.111
   1596.000        126.051        202.570          2.286          0.069
   1596.500     -99999.000        260.966          2.445          0.347
   1597.000         55.498        269.165          2.564          0.261
   1597.500        107.225        251.360          2.627          0.179
   1598.000         77.097        246.349          2.687          0.325
   1598.500         71.241        272.946          2.223          0.125
   1599.000        111.921        276.537          2.619          0.140
   1599.500         52.446        261.809          2.231          0.058
   1600.000        113.471        250.403          2.426          0.197
   1600.500        107.865        242.234          2.373          0.106
   1601.000         96.349        259.239          2.239          0.064
   1601.500         91.076        210.294          2.298          0.121
   1602.000         99.349        256.051          2.373          0.232
   1602.500         74.668        252.451          2.368          0.169
   1603.000        117.284        271.654          2.540          0.211
   1603.500         41.454        259.145          2.547          0.263
   1604.000        101.582        225.762          2.654          0.341
   1604.500         44.432        273.391          2.381          0.219
   1605.000        129.613        213.088          2.239          0.145
   1605.500        135.495        274.369          2.572          0.248
   1606.000         42.781        224.429          2.417          0.111
   1606.500         62.891        276.020          2.639          0.176
   1607.000         53.359        262.768          2.501          0.300
   1607.500        137.435        260.641          2.687          0.295
   1608.000        120.071        214.363          2.678          0.293
   1608.500         67.474        267.476          2.257          0.250
   1609.000         92.433        274.843          2.283          0.161
   1609.500         62.588        236.311          2.273          0.152
   1610.000        123.836        250.300          2.669          0.077
   1610.500        106.063        246.067          2.587          0.326
   1611.000         53.384        213.385          2.674          0.345
   1611.500         96.090        268.397          2.614          0.286
