# LAS Format Log File (paleo mkproject mini fixture)
~Version Information
VERS.   2.0:
WRAP.   NO:
~Well
STRT .m   1500.000 :
STOP .m   1699.500 :
STEP .m   0.500 :
NULL .  -99999 :
COMP.           : PALEO FIXTURE
WELL.  A1  : WELL
DATE.  01/01/2026 00:00:00  : DATE
~Curve
DEPT .m                   : DEPTH
GR .api                   : GAMMA RAY
DT .us/m                 : SONIC
RHOB .g/cm3              : DENSITY
NPHI .v/v                : NEUTRON
~Parameter
# ====================================
~Ascii
   1500.000        130.290        268.383          2.626          0.063
   1500.500        130.990        229.757          2.547          0.209
   1501.000        137.278        208.143          2.639          0.342
   1501.500         77.671        233.751          2.681          0.316
   1502.000         67.386        222.953          2.342          0.107
   1502.500         87.462        210.031          2.319          0.126
   1503.000         75.109        238.230          2.635          0.115
   1503.500        129.978        238.854          2.538          0.102
   1504.000        116.034        207.160          2.347          0.157
   1504.500        113.720        243.797          2.444          0.166
   1505.000         52.112        250.542          2.513          0.128
   1505.500        125.724        249.090          2.478          0.230
   1506.000         75.687        271.629          2.477          0.166
   1506.500         89.957        271.971          2.582          0.099
   1507.000         52.263        245.976          2.356          0.180
   1507.500         44.467        250.023          2.201          0.273
   1508.000         82.032        226.280          2.337          0.259
   1508.500        137.282        243.519          2.626          0.310
   1509.000         80.145        222.227          2.318          0.157
   1509.500         41.058        272.766          2.688          0.188
   1510.000         75.736        275.331          2.399          0.266
   1510.500         86.475        270.450          2.292          0.136
   1511.000        129.695        248.784          2.210          0.166
   1511.500        114.390        228.977          2.292          0.150
   1512.000         71.194        212.296          2.591          0.154
   1512.500         46.732        222.821          2.217          0.093
   1513.000         52.957        221.937          2.602          0.064
   1513.500         76.151        225.863          2.332          0.076
   1514.000        125.284        214.985          2.395          0.155
   1514.500         74.417        203.737          2.551          0.212
   1515.000        128.828        259.769          2.412          0.192
   1515.500        119.569        241.175          2.688          0.063
   1516.000        106.114        200.509          2.440          0.300
   1516.500         41.812        224.349          2.552          0.164
   1517.000        131.814        217.163          2.500          0.304
   1517.500         88.168        278.214          2.391          0.219
   1518.000         61.772        220.270          2.591          0.249
   1518.500        105.869        278.855          2.675          0.297
   1519.000        100.774        240.796          2.264          0.300
   1519.500         44.513        200.826          2.223          0.190
   1520.000         89.075        214.972          2.551          0.323
   1520.500         76.955        259.499          2.674          0.265
   1521.000        107.672        204.144          2.231          0.054
   1521.500        138.962        208.404          2.305          0.193
   1522.000        102.324        249.613          2.447          0.136
   1522.500         87.607        271.574          2.689          0.058
   1523.000        126.330        262.480          2.654          0.150
   1523.500         78.418        270.889          2.695          0.250
   1524.000        102.048        268.489          2.427          0.222
   1524.500         61.279        228.418          2.341          0.136
   1525.000        101.172        207.872          2.601          0.209
   1525.500         95.075        203.767          2.478          0.316
   1526.000         43.756        250.192          2.257          0.072
   1526.500         81.093        246.417          2.329          0.058
   1527.000        115.982        264.187          2.555          0.224
   1527.500        115.170        223.072          2.363          0.112
   1528.000        106.689        202.612          2.409          0.063
   1528.500         58.589        240.002          2.520          0.112
   1529.000         62.645        202.086          2.502          0.087
   1529.500        127.733        220.386          2.273          0.153
   1530.000         62.568        237.934          2.656          0.086
   1530.500        102.477        236.654          2.543          0.251
   1531.000        109.904        214.031          2.528          0.323
   1531.500         53.339        237.836          2.445          0.086
   1532.000         44.345        247.643          2.669          0.284
   1532.500         87.381        211.898          2.387          0.221
   1533.000         72.107        269.277          2.412          0.123
   1533.500        112.853        223.096          2.515          0.313
   1534.000        114.950        217.518          2.609          0.277
   1534.500        122.596        244.308          2.490          0.292
   1535.000         77.956        268.878          2.218          0.170
   1535.500         96.185        264.388          2.620          0.330
   1536.000        136.047        222.636          2.220          0.194
   1536.500        120.834        270.503          2.333          0.189
   1537.000        139.262        200.685          2.393          0.075
   1537.500        131.038        265.480          2.488          0.051
   1538.000        136.779        262.371          2.422          0.211
   1538.500         66.975        240.150          2.537          0.127
   1539.000        119.688        214.344          2.357          0.306
   1539.500         51.656        260.688          2.530          0.247
   1540.000         82.517        255.394          2.408          0.072
   1540.500         86.818        270.962          2.456          0.336
   1541.000        103.503        216.299          2.596          0.220
   1541.500         67.578        249.873          2.439          0.268
   1542.000         43.617        274.671          2.235          0.128
   1542.500        115.827        243.701          2.267          0.299
   1543.000         64.334        264.793          2.262          0.294
   1543.500        132.384        273.445          2.277          0.284
   1544.000         64.162        222.468          2.417          0.266
   1544.500         67.888        277.173          2.568          0.077
   1545.000        133.910        244.861          2.257          0.157
   1545.500        112.450        247.359          2.575          0.209
   1546.000        130.716        225.345          2.522          0.338
   1546.500        104.052        243.232          2.470          0.146
   1547.000         70.818        263.340          2.337          0.218
   1547.500         55.693        278.118          2.423          0.135
   1548.000     -99999.000        200.861          2.382          0.088
   1548.500        121.777        249.031          2.461          0.344
   1549.000        131.120        271.400          2.474          0.348
   1549.500        123.980        216.257          2.561          0.269
   1550.000         78.094        226.413          2.413          0.287
   1550.500        129.612        264.989          2.674          0.319
   1551.000         90.674        270.201          2.462          0.272
   1551.500         49.695        202.872          2.568          0.225
   1552.000        102.806        210.435          2.260          0.113
   1552.500        139.879        231.161          2.489          0.264
   1553.000         83.587        262.381          2.697          0.123
   1553.500         54.924        256.436          2.261          0.252
   1554.000        113.630        268.115          2.508          0.292
   1554.500         96.950        257.325          2.619          0.239
   1555.000         55.182        210.745          2.581          0.254
   1555.500         57.426        266.219          2.255          0.210
