# LAS Format Log File (paleo mkproject mini fixture)
~Version Information
VERS.   2.0:
WRAP.   NO:
~Well
STRT .m   1500.000 :
STOP .m   1699.500 :
STEP .m   0.500 :
NULL .  -99999 :
COMP.           : PALEO FIXTURE
WELL.  A1  : WELL
DATE.  01/01/2026 00:00:00  : DATE
~Curve
DEPT .m                   : DEPTH
GR .api                   : GAMMA RAY
DT .us/m                 : SONIC
RHOB .g/cm3              : DENSITY
NPHI .v/v                : NEUTRON
~Parameter
# ====================================
~Ascii
# ...
   1612.000         56.475        274.398          2.674          0.075
   1612.500         55.737        236.275          2.561          0.246
   1613.000         64.144        267.386          2.241          0.179
   1613.500        111.651        267.593          2.249          0.057
   1614.000         51.145        231.234          2.380          0.203
   1614.500         41.525        243.753          2.534          0.084
   1615.000         92.786        245.761          2.375          0.088
   1615.500         90.306        263.262          2.312          0.103
   1616.000         90.518        262.810          2.216          0.263
   1616.500         55.157        210.326          2.628          0.137
   1617.000         66.267        252.346          2.630          0.071
   1617.500        139.165        278.441          2.374          0.220
   1618.000        125.526        263.548          2.698          0.222
   1618.500         73.808        208.990          2.577          0.297
   1619.000         89.182        240.901          2.571          0.283
   1619.500        110.160        204.836          2.290          0.244
   1620.000         94.112        235.293          2.275          0.194
   1620.500         78.856        238.915          2.567          0.337
   1621.000         62.511        210.106          2.615          0.119
   1621.500        118.799        237.828          2.541          0.332
   1622.000        139.982        242.311          2.669          0.123
   1622.500         74.626        260.440          2.585          0.193
   1623.000        102.372        238.563          2.377          0.290
   1623.500         62.914        271.469          2.579          0.341
   1624.000        131.355        206.291          2.222          0.061
   1624.500        107.144        230.079          2.259          0.241
   1625.000         58.771        279.796          2.511          0.111
   1625.500         41.411        253.480          2.669          0.114
   1626.000         79.709        261.342          2.238          0.153
   1626.500         82.884        215.516          2.202          0.084
   1627.000        134.347        277.251          2.556          0.176
   1627.500         73.019        220.259          2.235          0.057
   1628.000         58.535        228.996          2.328          0.315
   1628.500         87.519        270.607          2.359          0.329
   1629.000        103.130        279.296          2.280          0.245
   1629.500        115.044        251.872          2.201          0.223
   1630.000        122.086        213.208          2.250          0.217
   1630.500        104.673        230.379          2.345          0.167
   1631.000        129.284        234.221          2.521          0.118
   1631.500         82.114        267.057          2.337          0.291
   1632.000        124.125        235.352          2.258          0.164
   1632.500        134.667        226.034          2.294          0.061
   1633.000         85.861        265.238          2.533          0.225
   1633.500         64.932        218.227          2.602          0.147
   1634.000        136.680        269.228          2.445          0.178
   1634.500        113.272        239.942          2.203          0.219
   1635.000         73.548        225.480          2.331          0.099
   1635.500         49.024        206.463          2.487          0.170
   1636.000         68.788        276.053          2.581          0.277
   1636.500        130.459        220.648          2.268          0.282
   1637.000        139.420        213.002          2.531          0.164
   1637.500        133.492        276.520          2.360          0.308
   1638.000         85.248        239.470          2.463          0.157
   1638.500         49.147        277.867          2.240          0.200
   1639.000         95.690        205.782          2.695          0.210
   1639.500         49.762        211.826          2.310          0.059
   1640.000        125.371        200.542          2.259          0.076
   1640.500        123.955        237.486          2.256          0.219
   1641.000        138.455        256.720          2.679          0.281
   1641.500         80.333        209.477          2.489          0.259
   1642.000        121.731        212.753          2.345          0.232
   1642.500        119.952        236.565          2.693          0.255
   1643.000         66.451        208.635          2.471          0.051
   1643.500         77.529        275.245          2.457          0.053
   1644.000        118.912        217.011          2.656          0.145
   1644.500        131.404        278.335          2.506          0.181
   1645.000     -99999.000        247.839          2.258          0.252
   1645.500        125.280        233.799          2.566          0.244
   1646.000         85.614        241.809          2.429          0.246
   1646.500         69.758        248.422          2.620          0.274
   1647.000         59.516        247.006          2.614          0.328
   1647.500         99.265        202.171          2.247          0.289
   1648.000        116.698        221.309          2.528          0.250
   1648.500         64.562        276.992          2.223          0.254
   1649.000         44.341        233.978          2.214          0.113
   1649.500         47.798        274.576          2.475          0.245
   1650.000        127.328        276.125          2.434          0.136
   1650.500         81.067        274.323          2.323          0.328
   1651.000        113.669        206.180          2.511          0.186
   1651.500        108.716        226.312          2.690          0.189
   1652.000        123.682        230.362          2.653          0.261
   1652.500         93.393        239.268          2.281          0.322
   1653.000        102.923        238.147          2.238          0.135
   1653.500         65.858        203.534          2.230          0.274
   1654.000        118.867        232.736          2.577          0.248
   1654.500        118.531        269.038          2.217          0.242
   1655.000        101.336        256.524          2.630          0.267
   1655.500         42.804        258.259          2.551          0.335
   1656.000        126.677        211.570          2.209          0.091
   1656.500        110.092        254.201          2.225          0.180
   1657.000         45.697        215.064          2.637          0.316
   1657.500         96.635        203.359          2.442          0.095
   1658.000         55.337        209.797          2.381          0.061
   1658.500         52.058        213.688          2.597          0.216
   1659.000        114.105        269.630          2.649          0.244
   1659.500        111.674        267.570          2.248          0.273
   1660.000        101.256        239.961          2.468          0.314
   1660.500         52.535        229.787          2.536          0.332
   1661.000        119.719        233.195          2.211          0.149
   1661.500         93.242        230.486          2.588          0.087
   1662.000         42.779        219.213          2.612          0.195
   1662.500        137.497        223.147          2.379          0.312
   1663.000        104.504        230.840          2.240          0.174
   1663.500         61.407        237.558          2.570          0.163
   1664.000        133.931        224.315          2.440          0.244
   1664.500         44.540        207.775          2.311          0.249
   1665.000        132.986        234.757          2.249          0.111
   1665.500         44.730        255.099          2.514          0.341
   1666.000         98.173        266.638          2.279          0.305
   1666.500        116.631        226.039          2.591          0.155
   1667.000         85.998        239.246          2.563          0.207
   1667.500         74.022        245.282          2.669          0.179
