# LAS Format Log File (paleo mkproject mini fixture)
~Version Information
VERS.   2.0:
WRAP.   NO:
~Well
STRT .m   1500.000 :
STOP .m   1699.500 :
STEP .m   0.500 :
NULL .  -99999 :
COMP.           : PALEO FIXTURE
WELL.  A1  : WELL
DATE.  01/01/2026 00:00:00  : DATE
~Curve
DEPT .m                   : DEPTH
GR .api                   : GAMMA RAY
DT .us/m                 : SONIC
RHOB .g/cm3              : DENSITY
NPHI .v/v                : NEUTRON
~Parameter
# ====================================
~Ascii
# ...
   1668.000        122.150        227.161          2.380          0.332
   1668.500         95.860        203.664          2.264          0.164
   1669.000         54.431        275.717          2.537          0.171
   1669.500         76.087        261.136          2.432          0.063
   1670.000         49.438        271.475          2.632          0.290
   1670.500        117.184        204.736          2.383          0.137
   1671.000        132.987        267.689          2.275          0.280
   1671.500         67.476        221.553          2.566          0.209
   1672.000         74.299        224.778          2.284          0.069
   1672.500        102.185        206.700          2.226          0.174
   1673.000        113.925        205.792          2.350          0.086
   1673.500         48.236        246.282          2.422          0.273
   1674.000        135.428        226.880          2.664          0.285
   1674.500         52.814        275.361          2.519          0.213
   1675.000         80.812        242.762          2.522          0.121
   1675.500         95.662        270.931          2.651          0.154
   1676.000        109.702        267.196          2.392          0.087
   1676.500         45.143        259.883          2.647          0.242
   1677.000        102.275        228.447          2.456          0.303
   1677.500         58.042        221.971          2.430          0.205
   1678.000        105.935        279.756          2.609          0.064
   1678.500        123.118        207.788          2.381          0.202
   1679.000        125.749        204.805          2.442          0.144
   1679.500         48.413        271.728          2.677          0.231
   1680.000         58.621        238.194          2.685          0.053
   1680.500         92.302        219.959          2.591          0.193
   1681.000         71.227        260.902          2.615          0.156
   1681.500        138.305        213.390          2.270          0.306
   1682.000        121.690        250.758          2.444          0.242
   1682.500        113.632        225.639          2.469          0.085
   1683.000        125.012        227.912          2.668          0.256
   1683.500         51.497        276.003          2.267          0.070
   1684.000         62.254        255.301          2.384          0.178
   1684.500         97.164        237.428          2.243          0.317
   1685.000        133.464        254.121          2.579          0.271
   1685.500         57.762        259.474          2.623          0.140
   1686.000         54.360        274.290          2.390          0.172
   1686.500         95.828        206.287          2.400          0.310
   1687.000         96.754        259.923          2.323          0.149
   1687.500         66.620        269.568          2.411          0.215
   1688.000         72.737        269.797          2.456          0.308
   1688.500         99.171        276.537          2.402          0.168
   1689.000         62.608        272.822          2.594          0.160
   1689.500        121.088        252.909          2.539          0.182
   1690.000         86.550        238.506          2.406          0.345
   1690.500        127.114        240.856          2.407          0.288
   1691.000        120.063        202.430          2.523          0.207
   1691.500         91.428        251.982          2.467          0.323
   1692.000         53.144        226.710          2.608          0.229
   1692.500        123.700        275.284          2.485          0.064
   1693.000         93.215        255.471          2.396          0.327
   1693.500     -99999.000        223.118          2.576          0.189
   1694.000        130.737        257.442          2.608          0.348
   1694.500        121.014        208.672          2.414          0.135
   1695.000         88.090        275.974          2.392          0.155
   1695.500        123.912        215.601          2.428          0.324
   1696.000         46.149        229.990          2.355          0.104
   1696.500        112.563        233.654          2.359          0.247
   1697.000         85.681        264.626          2.539          0.058
   1697.500         77.436        230.192          2.208          0.280
   1698.000         78.486        275.678          2.390          0.055
   1698.500         51.887        245.030          2.356          0.333
   1699.000         45.799        201.944          2.413          0.217
   1699.500         54.937        200.287          2.515          0.274
