# LAS Format Log File (paleo mkproject mini fixture)
~Version Information
VERS.   2.0:
WRAP.   NO:
~Well
STRT .m   1500.000 :
STOP .m   1699.500 :
STEP .m   0.500 :
NULL .  -99999 :
COMP.           : PALEO FIXTURE
WELL.  A2  : WELL
DATE.  01/01/2026 00:00:00  : DATE
~Curve
DEPT .m                   : DEPTH
GR .api                   : GAMMA RAY
DT .us/m                 : SONIC
RHOB .g/cm3              : DENSITY
NPHI .v/v                : NEUTRON
~Parameter
# ====================================
~Ascii
# ...
   1668.000         98.783        207.273          2.469          0.349
   1668.500         42.309        248.034          2.500          0.066
   1669.000         86.963        271.176          2.220          0.125
   1669.500         98.512        265.882          2.674          0.215
   1670.000        104.539        276.585          2.678          0.315
   1670.500         96.822        253.563          2.503          0.065
   1671.000         60.974        239.404          2.594          0.321
   1671.500         94.256        205.073          2.354          0.100
   1672.000         47.513        269.341          2.326          0.319
   1672.500        102.173        255.322          2.542          0.177
   1673.000         68.236        237.875          2.641          0.127
   1673.500         64.201        275.603          2.248          0.148
   1674.000        114.862        221.228          2.492          0.217
   1674.500         77.916        244.058          2.396          0.224
   1675.000         85.309        278.330          2.255          0.096
   1675.500         60.275        271.149          2.505          0.211
   1676.000         45.990        203.793          2.439          0.333
   1676.500         56.790        200.126          2.512          0.288
   1677.000        137.876        215.872          2.368          0.152
   1677.500         94.463        222.496          2.555          0.052
   1678.000        126.295        259.442          2.324          0.170
   1678.500         78.465        268.490          2.231          0.314
   1679.000         94.490        243.961          2.669          0.100
   1679.500        132.561        252.536          2.325          0.151
   1680.000         80.921        256.441          2.424          0.110
   1680.500         83.296        213.725          2.500          0.320
   1681.000         60.324        269.416          2.325          0.130
   1681.500         87.921        271.276          2.463          0.115
   1682.000         68.511        223.913          2.348          0.125
   1682.500        106.073        235.013          2.596          0.300
   1683.000         70.926        247.418          2.696          0.121
   1683.500        115.204        230.826          2.554          0.079
   1684.000         74.951        206.844          2.262          0.282
   1684.500         69.766        261.147          2.339          0.134
   1685.000         85.960        276.504          2.556          0.153
   1685.500        104.132        220.411          2.336          0.316
   1686.000        107.124        201.077          2.603          0.349
   1686.500         79.282        205.530          2.318          0.090
   1687.000         82.964        213.575          2.311          0.108
   1687.500         73.231        241.361          2.424          0.242
   1688.000         86.659        248.314          2.302          0.298
   1688.500        115.210        221.173          2.603          0.133
   1689.000         51.098        248.885          2.220          0.179
   1689.500         63.591        222.118          2.526          0.121
   1690.000         43.683        211.119          2.499          0.219
   1690.500        127.573        235.697          2.468          0.129
   1691.000         84.890        201.054          2.608          0.175
   1691.500        132.606        273.232          2.661          0.074
   1692.000        110.567        267.911          2.261          0.219
   1692.500        129.577        206.332          2.609          0.054
   1693.000     -99999.000        230.393          2.525          0.286
   1693.500        132.720        206.186          2.340          0.158
   1694.000        118.295        260.542          2.250          0.115
   1694.500        133.353        241.090          2.293          0.146
   1695.000         89.955        261.540          2.464          0.108
   1695.500        123.308        232.185          2.633          0.219
   1696.000        124.304        229.703          2.490          0.064
   1696.500         62.973        275.003          2.468          0.179
   1697.000         82.546        227.866          2.483          0.272
   1697.500        118.808        247.140          2.205          0.071
   1698.000         74.435        245.225          2.446          0.335
   1698.500         52.994        265.605          2.615          0.259
   1699.000        132.304        252.183          2.595          0.054
   1699.500        131.834        219.156          2.238          0.287
