# LAS Format Log File (paleo mkproject mini fixture)
~Version Information
VERS.   2.0:
WRAP.   NO:
~Well
STRT .m   1500.000 :
STOP .m   1699.500 :
STEP .m   0.500 :
NULL .  -99999 :
COMP.           : PALEO FIXTURE
WELL.  A2  : WELL
DATE.  01/01/2026 00:00:00  : DATE
~Curve
DEPT .m                   : DEPTH
GR .api                   : GAMMA RAY
DT .us/m                 : SONIC
RHOB .g/cm3              : DENSITY
NPHI .v/v                : NEUTRON
~Parameter
# ====================================
~Ascii
# ...
   1556.000        133.889        238.050          2.556          0.144
   1556.500         85.358        203.842          2.409          0.303
   1557.000         83.822        236.918          2.376          0.195
   1557.500        130.532        210.510          2.286          0.189
   1558.000         65.932        216.649          2.484          0.107
   1558.500        101.485        204.229          2.336          0.333
   1559.000        112.344        242.298          2.430          0.246
   1559.500         89.299        232.344          2.645          0.350
   1560.000        123.438        273.307          2.645          0.261
   1560.500         71.963        223.076          2.228          0.266
   1561.000        128.591        260.226          2.333          0.266
   1561.500         96.990        229.735          2.392          0.076
   1562.000         40.670        256.434          2.573          0.129
   1562.500         57.787        209.946          2.339          0.116
   1563.000        104.275        224.856          2.653          0.166
   1563.500         63.770        219.863          2.470          0.131
   1564.000        137.731        259.678          2.612          0.244
   1564.500        104.232        223.389          2.420          0.059
   1565.000         68.828        263.075          2.508          0.291
   1565.500        105.959        236.395          2.302          0.117
   1566.000         64.315        276.919          2.397          0.107
   1566.500         84.600        245.938          2.683          0.191
   1567.000         53.143        269.507          2.537          0.285
   1567.500         89.780        224.480          2.261          0.335
   1568.000         43.455        257.272          2.312          0.341
   1568.500         43.970        239.108          2.276          0.280
   1569.000        133.330        201.508          2.365          0.343
   1569.500         75.105        255.753          2.634          0.340
   1570.000        115.273        240.086          2.464          0.052
   1570.500         42.949        278.404          2.247          0.130
   1571.000         74.462        214.171          2.573          0.067
   1571.500         59.212        263.332          2.598          0.193
   1572.000         80.734        249.945          2.652          0.178
   1572.500        101.420        208.309          2.517          0.228
   1573.000         74.330        235.322          2.669          0.323
   1573.500        120.528        256.822          2.683          0.225
   1574.000         45.388        271.668          2.335          0.252
   1574.500         42.293        257.296          2.343          0.308
   1575.000        107.186        260.520          2.554          0.299
   1575.500         62.386        217.310          2.244          0.186
   1576.000         63.129        225.305          2.598          0.255
   1576.500        135.259        212.818          2.293          0.303
   1577.000         67.499        248.060          2.492          0.258
   1577.500         56.767        232.367          2.427          0.205
   1578.000         79.940        261.146          2.626          0.073
   1578.500         40.531        276.315          2.210          0.102
   1579.000        113.704        253.972          2.579          0.097
   1579.500         88.058        231.050          2.641          0.245
   1580.000         77.642        254.710          2.667          0.152
   1580.500         52.605        238.210          2.684          0.207
   1581.000        111.947        247.018          2.210          0.301
   1581.500         96.797        278.901          2.522          0.162
   1582.000        117.647        261.754          2.508          0.057
   1582.500         43.999        252.912          2.519          0.288
   1583.000         79.844        243.697          2.550          0.203
   1583.500        123.425        232.943          2.408          0.057
   1584.000         84.708        253.267          2.434          0.323
   1584.500        109.011        253.813          2.201          0.142
   1585.000        130.221        203.241          2.503          0.134
   1585.500         52.033        276.687          2.304          0.333
   1586.000        130.666        250.473          2.206          0.120
   1586.500        107.468        248.289          2.368          0.347
   1587.000        114.871        242.615          2.676          0.285
   1587.500         54.117        255.126          2.348          0.255
   1588.000        118.202        219.832          2.525          0.300
   1588.500        108.471        212.702          2.281          0.215
   1589.000         68.303        211.523          2.356          0.162
   1589.500        132.325        209.740          2.287          0.103
   1590.000         64.589        208.037          2.501          0.158
   1590.500        134.150        227.397          2.288          0.258
   1591.000         51.488        227.397          2.470          0.139
   1591.500         64.206        273.489          2.440          0.329
   1592.000         85.436        237.015          2.623          0.190
   1592.500        103.412        211.704          2.295          0.132
   1593.000         95.615        250.409          2.560          0.319
   1593.500         45.962        245.822          2.668          0.112
   1594.000        138.447        278.928          2.227          0.343
   1594.500         75.692        218.937          2.236          0.204
   1595.000         45.835        218.462          2.248          0.286
   1595.500        136.198        207.670          2.345          0.116
   1596.000     -99999.000        221.728          2.395          0.210
   1596.500         49.184        243.761          2.521          0.254
   1597.000         57.008        252.013          2.589          0.055
   1597.500         44.738        247.736          2.553          0.123
   1598.000         72.436        203.767          2.271          0.095
   1598.500         97.024        273.744          2.421          0.291
   1599.000        113.174        229.992          2.700          0.310
   1599.500         81.205        208.830          2.457          0.171
   1600.000         59.180        262.049          2.278          0.137
   1600.500        131.395        273.315          2.426          0.078
   1601.000        100.437        258.243          2.406          0.052
   1601.500         85.002        246.890          2.306          0.111
   1602.000         40.669        207.423          2.434          0.283
   1602.500         95.806        209.709          2.655          0.053
   1603.000         69.800        207.574          2.699          0.261
   1603.500        115.801        238.486          2.580          0.308
   1604.000        105.165        219.410          2.666          0.295
   1604.500         45.779        257.584          2.287          0.274
   1605.000        101.470        214.968          2.652          0.077
   1605.500         54.664        205.112          2.238          0.136
   1606.000        129.504        241.202          2.654          0.329
   1606.500         67.599        274.018          2.396          0.104
   1607.000        123.599        238.577          2.261          0.071
   1607.500        122.784        268.183          2.561          0.067
   1608.000         97.845        254.662          2.671          0.323
   1608.500         97.060        233.512          2.304          0.293
   1609.000        131.042        252.726          2.288          0.137
   1609.500        100.245        204.034          2.494          0.147
   1610.000        120.422        235.327          2.429          0.267
   1610.500        138.221        262.989          2.417          0.253
   1611.000        104.101        202.912          2.608          0.062
   1611.500         44.767        278.925          2.491          0.277
