# LAS Format Log File (paleo mkproject mini fixture)
~Version Information
VERS.   2.0:
WRAP.   NO:
~Well
STRT .m   1500.000 :
STOP .m   1699.500 :
STEP .m   0.500 :
NULL .  -99999 :
COMP.           : PALEO FIXTURE
WELL.  A2  : WELL
DATE.  01/01/2026 00:00:00  : DATE
~Curve
DEPT .m                   : DEPTH
GR .api                   : GAMMA RAY
DT .us/m                 : SONIC
RHOB .g/cm3              : DENSITY
NPHI .v/v                : NEUTRON
~Parameter
# ====================================
~Ascii
   1500.000        135.432        272.571          2.679          0.346
   1500.500         52.794        225.222          2.528          0.339
   1501.000        117.679        249.393          2.670          0.091
   1501.500        139.125        216.082          2.515          0.317
   1502.000         99.962        224.282          2.469          0.306
   1502.500        134.078        230.945          2.360          0.219
   1503.000         60.226        251.483          2.294          0.187
   1503.500        102.061        279.566          2.539          0.335
   1504.000         99.094        254.968          2.378          0.081
   1504.500         88.259        228.216          2.297          0.060
   1505.000        110.761        210.772          2.688          0.094
   1505.500         73.913        219.528          2.669          0.310
   1506.000         72.641        204.337          2.491          0.161
   1506.500         50.340        247.344          2.338          0.216
   1507.000         53.772        202.863          2.266          0.113
   1507.500        111.706        246.553          2.341          0.102
   1508.000         41.958        262.641          2.452          0.315
   1508.500         66.552        217.939          2.624          0.240
   1509.000         89.668        211.407          2.551          0.190
   1509.500         68.068        228.022          2.430          0.189
   1510.000         78.691        245.679          2.561          0.322
   1510.500         63.110        203.904          2.539          0.215
   1511.000        103.524        203.103          2.266          0.343
   1511.500         59.983        243.113          2.349          0.291
   1512.000         73.531        229.798          2.363          0.100
   1512.500        114.957        238.443          2.300          0.282
   1513.000        133.834        202.696          2.430          0.198
   1513.500        137.543        257.802          2.642          0.106
   1514.000        104.963        226.891          2.246          0.138
   1514.500        114.516        239.054          2.550          0.178
   1515.000         41.257        207.977          2.447          0.318
   1515.500         52.692        279.862          2.576          0.338
   1516.000        108.012        259.398          2.532          0.130
   1516.500         40.443        242.533          2.454          0.258
   1517.000         77.375        264.785          2.206          0.233
   1517.500        127.981        273.861          2.237          0.131
   1518.000         42.998        275.306          2.573          0.303
   1518.500        126.372        239.971          2.290          0.137
   1519.000         53.434        222.006          2.669          0.074
   1519.500        125.317        236.164          2.620          0.199
   1520.000         64.284        223.150          2.342          0.349
   1520.500        129.669        251.759          2.548          0.311
   1521.000        109.099        206.571          2.471          0.103
   1521.500        114.711        269.936          2.230          0.256
   1522.000         89.025        207.010          2.531          0.157
   1522.500        100.179        242.583          2.518          0.196
   1523.000         81.204        218.461          2.505          0.243
   1523.500         43.032        260.136          2.667          0.051
   1524.000         65.919        241.513          2.638          0.243
   1524.500         48.979        276.426          2.384          0.054
   1525.000         72.499        205.700          2.527          0.212
   1525.500        102.751        268.520          2.225          0.093
   1526.000         43.959        246.835          2.569          0.083
   1526.500        117.125        271.567          2.325          0.228
   1527.000        120.404        219.363          2.239          0.252
   1527.500        100.697        208.642          2.486          0.290
   1528.000         41.177        203.697          2.224          0.344
   1528.500         44.406        235.585          2.598          0.070
   1529.000         65.756        248.568          2.389          0.061
   1529.500        126.805        240.852          2.410          0.074
   1530.000        113.402        228.367          2.597          0.313
   1530.500        138.088        260.352          2.641          0.175
   1531.000        121.560        215.484          2.364          0.125
   1531.500        122.862        207.297          2.434          0.335
   1532.000        123.004        247.659          2.366          0.130
   1532.500         41.670        277.040          2.661          0.112
   1533.000         41.739        210.323          2.282          0.346
   1533.500         51.265        266.922          2.560          0.251
   1534.000        107.646        233.938          2.487          0.321
   1534.500        103.631        211.115          2.230          0.052
   1535.000         89.883        246.346          2.586          0.178
   1535.500         63.762        250.467          2.454          0.122
   1536.000         49.034        200.110          2.290          0.124
   1536.500         46.180        217.343          2.380          0.304
   1537.000        108.003        254.860          2.640          0.255
   1537.500         70.211        215.470          2.536          0.297
   1538.000         41.668        274.632          2.571          0.327
   1538.500        134.007        274.784          2.694          0.243
   1539.000         85.275        240.219          2.321          0.124
   1539.500        107.321        201.267          2.575          0.109
   1540.000         61.590        216.508          2.685          0.094
   1540.500         43.031        261.797          2.400          0.241
   1541.000        126.794        274.826          2.612          0.176
   1541.500        107.410        223.988          2.284          0.105
   1542.000        135.134        210.285          2.643          0.099
   1542.500        129.153        271.036          2.469          0.302
   1543.000        122.322        254.127          2.697          0.273
   1543.500         67.149        271.562          2.411          0.075
   1544.000        107.680        221.061          2.700          0.254
   1544.500         97.004        204.454          2.201          0.188
   1545.000        115.041        211.617          2.554          0.188
   1545.500        116.316        218.714          2.336          0.088
   1546.000        112.397        229.480          2.455          0.146
   1546.500         68.696        248.299          2.327          0.154
   1547.000         70.299        233.839          2.550          0.329
   1547.500     -99999.000        237.235          2.337          0.327
   1548.000        129.460        279.201          2.367          0.195
   1548.500         44.115        210.056          2.376          0.289
   1549.000         82.689        203.491          2.296          0.251
   1549.500         46.687        232.057          2.416          0.116
   1550.000        116.743        249.999          2.260          0.064
   1550.500         98.516        257.560          2.473          0.157
   1551.000         54.419        210.535          2.537          0.189
   1551.500        119.635        278.794          2.462          0.299
   1552.000         75.833        257.551          2.545          0.221
   1552.500        131.052        275.110          2.602          0.075
   1553.000        129.162        200.854          2.481          0.130
   1553.500         87.361        257.205          2.547          0.177
   1554.000        135.134        279.331          2.679          0.305
   1554.500        103.111        246.334          2.221          0.270
   1555.000         85.272        207.665          2.684          0.290
   1555.500         72.923        268.534          2.383          0.315
