# LAS Format Log File (paleo mkproject mini fixture)
~Version Information
VERS.   2.0:
WRAP.   NO:
~Well
STRT .m   1500.000 :
STOP .m   1699.500 :
STEP .m   0.500 :
NULL .  -99999 :
COMP.           : PALEO FIXTURE
WELL.  A2  : WELL
DATE.  01/01/2026 00:00:00  : DATE
~Curve
DEPT .m                   : DEPTH
GR .api                   : GAMMA RAY
DT .us/m                 : SONIC
RHOB .g/cm3              : DENSITY
NPHI .v/v                : NEUTRON
~Parameter
# ====================================
~Ascii
# ...
   1612.000         52.295        267.404          2.425          0.195
   1612.500         82.150        276.793          2.574          0.146
   1613.000        127.277        200.803          2.547          0.119
   1613.500        110.455        244.036          2.362          0.198
   1614.000        112.094        258.774          2.279          0.160
   1614.500        125.677        251.690          2.388          0.263
   1615.000        108.022        239.241          2.233          0.138
   1615.500         66.553        250.470          2.611          0.071
   1616.000        100.778        215.986          2.585          0.218
   1616.500         90.146        261.869          2.593          0.102
   1617.000         95.484        227.238          2.434          0.094
   1617.500        116.189        244.250          2.283          0.156
   1618.000        120.376        279.266          2.248          0.107
   1618.500         40.161        273.939          2.381          0.156
   1619.000         99.264        264.977          2.405          0.086
   1619.500        115.131        241.322          2.308          0.193
   1620.000         92.745        277.508          2.332          0.130
   1620.500        102.337        261.934          2.255          0.088
   1621.000        108.161        278.816          2.230          0.317
   1621.500         90.531        202.555          2.343          0.290
   1622.000         78.313        243.278          2.402          0.238
   1622.500         84.053        242.306          2.364          0.213
   1623.000        108.921        216.282          2.666          0.176
   1623.500         59.678        228.738          2.619          0.294
   1624.000         94.834        207.818          2.369          0.305
   1624.500         92.197        228.931          2.353          0.286
   1625.000        104.992        241.075          2.488          0.322
   1625.500         48.751        275.583          2.279          0.081
   1626.000        136.137        236.036          2.333          0.116
   1626.500         51.920        268.107          2.203          0.072
   1627.000        135.271        208.068          2.332          0.262
   1627.500        111.561        268.723          2.229          0.132
   1628.000         90.872        221.517          2.424          0.246
   1628.500        125.386        233.554          2.577          0.238
   1629.000         92.851        258.303          2.536          0.131
   1629.500         48.308        218.715          2.476          0.317
   1630.000         61.266        241.514          2.653          0.239
   1630.500        130.519        261.412          2.664          0.228
   1631.000         43.779        213.996          2.490          0.078
   1631.500        124.329        256.034          2.473          0.174
   1632.000         81.870        271.954          2.248          0.092
   1632.500         59.754        225.246          2.518          0.345
   1633.000         45.798        253.536          2.473          0.244
   1633.500         88.848        266.081          2.466          0.092
   1634.000        138.309        222.435          2.501          0.235
   1634.500         98.791        251.039          2.410          0.234
   1635.000         67.100        226.480          2.502          0.144
   1635.500         93.725        244.176          2.333          0.093
   1636.000         86.030        211.229          2.614          0.313
   1636.500         45.338        272.200          2.664          0.063
   1637.000        105.079        248.561          2.673          0.148
   1637.500        112.205        250.563          2.430          0.111
   1638.000         69.058        200.276          2.538          0.066
   1638.500        127.868        224.556          2.504          0.203
   1639.000        105.075        256.681          2.504          0.261
   1639.500         57.674        205.405          2.438          0.272
   1640.000        138.740        270.191          2.320          0.211
   1640.500        124.362        241.360          2.400          0.309
   1641.000         79.130        203.916          2.283          0.109
   1641.500        102.400        243.791          2.699          0.282
   1642.000         72.498        255.260          2.447          0.326
   1642.500         81.066        208.282          2.407          0.202
   1643.000        124.733        254.512          2.406          0.113
   1643.500         96.291        270.727          2.568          0.301
   1644.000         92.576        258.440          2.687          0.324
   1644.500     -99999.000        272.990          2.690          0.237
   1645.000         74.473        202.859          2.568          0.065
   1645.500        115.814        236.512          2.426          0.080
   1646.000        132.181        235.836          2.240          0.191
   1646.500         71.036        259.114          2.621          0.216
   1647.000        109.905        216.232          2.629          0.163
   1647.500         78.879        273.503          2.512          0.320
   1648.000         82.240        261.840          2.227          0.266
   1648.500        130.144        242.050          2.499          0.340
   1649.000         66.301        200.976          2.522          0.344
   1649.500         52.589        272.259          2.305          0.057
   1650.000         46.536        215.447          2.521          0.072
   1650.500         82.611        227.231          2.609          0.213
   1651.000         43.270        258.521          2.240          0.175
   1651.500         80.670        271.142          2.646          0.087
   1652.000        125.018        247.892          2.668          0.113
   1652.500         90.473        269.700          2.280          0.226
   1653.000         64.539        233.654          2.691          0.319
   1653.500         41.903        205.625          2.534          0.144
   1654.000        138.634        221.267          2.491          0.292
   1654.500         97.697        249.109          2.607          0.259
   1655.000         71.709        209.524          2.413          0.346
   1655.500         43.879        243.291          2.341          0.304
   1656.000        123.074        203.525          2.301          0.119
   1656.500        123.936        204.720          2.670          0.186
   1657.000        118.001        202.639          2.298          0.134
   1657.500        116.750        238.829          2.531          0.295
   1658.000        122.527        243.479          2.621          0.118
   1658.500         58.275        270.402          2.249          0.085
   1659.000         62.008        257.866          2.304          0.079
   1659.500        106.972        229.041          2.383          0.297
   1660.000         83.426        225.801          2.403          0.233
   1660.500         52.983        209.637          2.549          0.145
   1661.000         61.443        223.431          2.681          0.098
   1661.500         71.064        207.837          2.204          0.255
   1662.000         48.202        206.021          2.248          0.332
   1662.500        117.262        230.514          2.411          0.265
   1663.000         66.889        245.920          2.685          0.138
   1663.500         69.350        221.236          2.553          0.078
   1664.000         49.031        265.530          2.622          0.117
   1664.500        110.999        200.732          2.537          0.270
   1665.000        115.554        225.277          2.297          0.083
   1665.500         59.715        222.366          2.454          0.154
   1666.000        101.585        206.578          2.577          0.228
   1666.500        138.514        222.600          2.208          0.108
   1667.000        125.012        229.808          2.446          0.254
   1667.500         91.352        246.466          2.621          0.349
