# LAS Format Log File (paleo mkproject mini fixture)
~Version Information
VERS.   2.0:
WRAP.   NO:
~Well
STRT .m   1500.000 :
STOP .m   1699.500 :
STEP .m   0.500 :
NULL .  -99999 :
COMP.           : PALEO FIXTURE
WELL.  A3  : WELL
DATE.  01/01/2026 00:00:00  : DATE
~Curve
DEPT .m                   : DEPTH
GR .api                   : GAMMA RAY
DT .us/m                 : SONIC
RHOB .g/cm3              : DENSITY
NPHI .v/v                : NEUTRON
~Parameter
# ====================================
~Ascii
# ...
   1556.000        132.522        265.206          2.367          0.287
   1556.500         43.902        246.903          2.225          0.297
   1557.000         73.617        245.702          2.298          0.319
   1557.500        136.063        204.345          2.469          0.318
   1558.000         93.423        251.782          2.352          0.165
   1558.500        123.535        243.495          2.471          0.210
   1559.000        100.163        263.315          2.697          0.182
   1559.500        109.096        210.461          2.249          0.156
   1560.000         98.542        255.575          2.448          0.331
   1560.500        137.218        249.488          2.258          0.196
   1561.000        128.610        228.464          2.573          0.287
   1561.500        104.808        219.684          2.527          0.063
   1562.000         98.379        250.721          2.520          0.347
   1562.500         65.700        246.732          2.519          0.119
   1563.000        110.191        279.151          2.554          0.147
   1563.500        128.897        249.609          2.211          0.102
   1564.000         80.836        232.837          2.322          0.287
   1564.500         50.567        202.309          2.383          0.178
   1565.000         55.415        242.363          2.636          0.260
   1565.500        119.778        250.560          2.638          0.098
   1566.000        114.965        274.028          2.465          0.188
   1566.500        137.997        203.539          2.634          0.064
   1567.000         77.817        249.070          2.657          0.067
   1567.500         92.329        240.597          2.536          0.298
   1568.000         94.722        257.880          2.378          0.111
   1568.500        122.509        272.973          2.688          0.218
   1569.000        137.712        229.226          2.262          0.111
   1569.500         81.644        200.516          2.499          0.224
   1570.000         82.717        254.466          2.289          0.194
   1570.500         90.709        263.400          2.556          0.085
   1571.000         85.939        206.772          2.373          0.291
   1571.500         86.782        208.845          2.449          0.233
   1572.000         53.960        255.343          2.681          0.110
   1572.500         65.044        232.838          2.317          0.270
   1573.000        107.616        274.630          2.657          0.218
   1573.500        114.516        256.848          2.611          0.070
   1574.000        139.613        228.550          2.273          0.323
   1574.500         47.552        259.546          2.582          0.198
   1575.000         65.891        249.708          2.496          0.172
   1575.500        123.084        223.523          2.478          0.126
   1576.000         70.743        253.614          2.478          0.344
   1576.500         63.609        257.011          2.468          0.264
   1577.000         45.684        207.900          2.455          0.259
   1577.500         65.939        250.601          2.280          0.292
   1578.000        122.066        256.543          2.379          0.287
   1578.500        105.683        268.960          2.562          0.097
   1579.000         97.446        219.081          2.251          0.166
   1579.500        135.499        237.550          2.456          0.319
   1580.000         55.703        224.832          2.693          0.325
   1580.500         77.079        204.350          2.394          0.107
   1581.000         80.905        242.112          2.221          0.115
   1581.500        106.897        216.570          2.617          0.171
   1582.000         64.926        262.458          2.246          0.146
   1582.500        135.695        212.374          2.402          0.050
   1583.000        108.816        259.840          2.292          0.326
   1583.500         81.731        247.597          2.520          0.083
   1584.000        117.911        244.885          2.433          0.213
   1584.500        137.766        257.461          2.402          0.281
   1585.000         90.710        254.094          2.449          0.167
   1585.500        131.812        233.300          2.535          0.315
   1586.000        101.484        274.060          2.695          0.314
   1586.500         81.619        254.272          2.560          0.306
   1587.000         76.647        260.688          2.203          0.312
   1587.500         42.919        214.083          2.612          0.313
   1588.000         64.874        253.413          2.483          0.224
   1588.500         51.419        202.703          2.356          0.345
   1589.000        100.964        264.420          2.561          0.098
   1589.500         58.543        263.085          2.254          0.260
   1590.000         63.463        262.861          2.227          0.056
   1590.500         60.923        242.885          2.553          0.185
   1591.000        126.026        254.075          2.497          0.281
   1591.500        123.642        221.179          2.481          0.234
   1592.000        102.536        213.804          2.306          0.322
   1592.500         97.225        230.182          2.671          0.136
   1593.000         85.973        277.418          2.413          0.093
   1593.500        128.386        231.971          2.300          0.266
   1594.000         81.029        224.126          2.519          0.187
   1594.500         64.512        270.195          2.449          0.187
   1595.000        130.475        256.202          2.617          0.295
   1595.500     -99999.000        209.531          2.430          0.336
   1596.000         54.855        276.225          2.657          0.259
   1596.500         98.297        270.247          2.286          0.121
   1597.000         45.313        222.783          2.207          0.102
   1597.500        102.354        252.860          2.636          0.230
   1598.000         64.006        234.226          2.555          0.190
   1598.500         48.601        213.385          2.650          0.153
   1599.000         86.469        257.565          2.619          0.193
   1599.500        128.012        231.350          2.654          0.264
   1600.000        113.792        220.742          2.215          0.251
   1600.500        123.816        223.386          2.644          0.126
   1601.000         98.207        263.727          2.497          0.167
   1601.500         96.455        231.825          2.387          0.224
   1602.000        137.421        244.609          2.474          0.234
   1602.500        137.300        228.288          2.622          0.230
   1603.000        137.708        200.692          2.639          0.087
   1603.500         91.108        232.283          2.350          0.098
   1604.000         45.738        244.586          2.677          0.090
   1604.500         47.237        264.797          2.221          0.095
   1605.000         49.167        215.304          2.275          0.159
   1605.500         99.600        216.891          2.512          0.054
   1606.000         45.973        204.354          2.522          0.206
   1606.500         75.384        273.293          2.202          0.270
   1607.000         82.539        276.830          2.408          0.121
   1607.500        132.506        210.991          2.639          0.119
   1608.000         60.494        267.514          2.406          0.188
   1608.500        125.824        212.828          2.299          0.109
   1609.000        112.292        211.959          2.662          0.120
   1609.500         42.101        236.095          2.642          0.166
   1610.000         45.556        212.590          2.265          0.343
   1610.500        103.712        256.125          2.558          0.147
   1611.000         56.155        219.799          2.621          0.094
   1611.500         41.109        264.888          2.414          0.189
