# LAS Format Log File (paleo mkproject mini fixture)
~Version Information
VERS.   2.0:
WRAP.   NO:
~Well
STRT .m   1500.000 :
STOP .m   1699.500 :
STEP .m   0.500 :
NULL .  -99999 :
COMP.           : PALEO FIXTURE
WELL.  A3  : WELL
DATE.  01/01/2026 00:00:00  : DATE
~Curve
DEPT .m                   : DEPTH
GR .api                   : GAMMA RAY
DT .us/m                 : SONIC
RHOB .g/cm3              : DENSITY
NPHI .v/v                : NEUTRON
~Parameter
# ====================================
~Ascii
# ...
   1612.000        110.050        208.030          2.418          0.161
   1612.500        134.028        264.580          2.684          0.284
   1613.000         93.870        266.883          2.677          0.052
   1613.500        121.454        256.225          2.681          0.289
   1614.000        134.254        207.201          2.413          0.094
   1614.500         80.327        223.259          2.382          0.066
   1615.000         85.937        202.165          2.372          0.060
   1615.500         73.008        270.134          2.341          0.053
   1616.000         88.583        223.392          2.372          0.337
   1616.500         63.487        275.902          2.204          0.166
   1617.000         92.373        272.021          2.239          0.215
   1617.500        102.344        262.816          2.309          0.334
   1618.000         52.339        204.815          2.329          0.212
   1618.500         80.462        279.920          2.389          0.265
   1619.000         91.453        275.248          2.652          0.332
   1619.500         51.483        201.643          2.361          0.238
   1620.000        132.459        229.604          2.580          0.248
   1620.500        123.027        241.394          2.211          0.234
   1621.000         98.464        238.066          2.663          0.223
   1621.500        116.645        260.157          2.477          0.096
   1622.000         82.269        220.814          2.523          0.060
   1622.500         96.535        270.081          2.318          0.115
   1623.000         84.457        209.116          2.351          0.280
   1623.500         67.000        213.076          2.686          0.255
   1624.000        120.230        221.423          2.501          0.135
   1624.500        138.661        214.406          2.581          0.102
   1625.000         94.992        214.461          2.664          0.253
   1625.500         63.416        271.285          2.410          0.152
   1626.000         48.690        269.329          2.650          0.309
   1626.500        138.154        256.468          2.432          0.222
   1627.000         68.893        212.587          2.259          0.134
   1627.500         77.212        236.845          2.305          0.098
   1628.000         72.634        272.354          2.241          0.349
   1628.500         53.589        227.037          2.214          0.315
   1629.000         56.994        209.400          2.354          0.136
   1629.500        108.905        257.986          2.607          0.061
   1630.000        118.435        203.241          2.520          0.236
   1630.500        132.114        200.555          2.517          0.320
   1631.000         40.891        213.230          2.563          0.079
   1631.500        106.961        224.113          2.477          0.244
   1632.000         52.600        214.654          2.556          0.146
   1632.500        128.200        210.136          2.531          0.252
   1633.000         51.693        269.826          2.246          0.264
   1633.500         86.547        200.798          2.341          0.167
   1634.000        100.526        274.180          2.585          0.128
   1634.500        122.395        202.566          2.382          0.181
   1635.000         88.769        257.362          2.348          0.259
   1635.500         48.276        224.791          2.236          0.151
   1636.000         65.243        279.328          2.350          0.090
   1636.500         40.070        233.303          2.479          0.222
   1637.000        138.501        241.432          2.248          0.083
   1637.500         96.964        259.008          2.656          0.095
   1638.000         46.170        252.527          2.449          0.078
   1638.500         70.168        261.477          2.359          0.207
   1639.000         93.032        270.053          2.598          0.178
   1639.500         60.373        227.542          2.390          0.061
   1640.000         57.863        216.131          2.675          0.255
   1640.500         83.961        264.889          2.527          0.271
   1641.000         69.018        248.662          2.670          0.199
   1641.500        107.966        210.653          2.372          0.253
   1642.000         48.764        227.414          2.364          0.287
   1642.500         53.790        275.012          2.304          0.233
   1643.000        126.374        215.120          2.697          0.193
   1643.500         69.656        239.777          2.520          0.099
   1644.000     -99999.000        263.962          2.535          0.070
   1644.500         96.932        225.459          2.525          0.331
   1645.000         81.618        237.623          2.292          0.061
   1645.500        115.580        211.642          2.528          0.279
   1646.000        133.984        203.114          2.242          0.068
   1646.500         78.533        223.044          2.698          0.289
   1647.000         65.482        210.939          2.545          0.184
   1647.500        130.896        223.772          2.248          0.217
   1648.000        114.089        234.549          2.318          0.153
   1648.500        115.186        274.238          2.203          0.181
   1649.000        137.745        270.808          2.584          0.228
   1649.500        102.376        279.124          2.201          0.320
   1650.000         92.286        255.460          2.682          0.287
   1650.500         66.706        270.355          2.266          0.316
   1651.000         53.118        273.600          2.646          0.205
   1651.500        104.236        265.065          2.551          0.167
   1652.000         80.656        265.145          2.563          0.284
   1652.500         95.150        258.566          2.543          0.121
   1653.000        129.495        265.297          2.386          0.236
   1653.500        109.814        272.320          2.249          0.061
   1654.000        101.344        220.016          2.224          0.324
   1654.500         58.575        216.902          2.337          0.150
   1655.000         41.703        256.487          2.600          0.158
   1655.500         85.321        209.975          2.255          0.332
   1656.000         80.298        208.591          2.675          0.251
   1656.500        104.781        229.254          2.317          0.188
   1657.000        115.253        237.370          2.443          0.327
   1657.500         83.586        220.476          2.254          0.348
   1658.000         41.028        226.499          2.395          0.086
   1658.500         65.066        260.370          2.238          0.060
   1659.000        120.091        272.753          2.649          0.328
   1659.500        137.811        214.626          2.375          0.217
   1660.000         98.352        271.478          2.550          0.229
   1660.500         47.973        250.861          2.661          0.135
   1661.000         64.344        277.056          2.245          0.080
   1661.500         55.320        206.590          2.414          0.094
   1662.000         52.147        278.376          2.213          0.169
   1662.500        133.042        212.195          2.668          0.331
   1663.000         88.074        269.304          2.277          0.340
   1663.500        111.305        248.891          2.545          0.090
   1664.000         81.098        214.149          2.578          0.186
   1664.500         64.557        241.699          2.583          0.326
   1665.000         57.028        228.134          2.522          0.214
   1665.500         42.582        207.412          2.545          0.174
   1666.000        136.447        252.864          2.687          0.059
   1666.500         45.302        217.562          2.690          0.061
   1667.000         56.384        266.793          2.211          0.058
   1667.500         41.336        256.393          2.512          0.084
