# LAS Format Log File (paleo mkproject mini fixture)
~Version Information
VERS.   2.0:
WRAP.   NO:
~Well
STRT .m   1500.000 :
STOP .m   1699.500 :
STEP .m   0.500 :
NULL .  -99999 :
COMP.           : PALEO FIXTURE
WELL.  A3  : WELL
DATE.  01/01/2026 00:00:00  : DATE
~Curve
DEPT .m                   : DEPTH
GR .api                   : GAMMA RAY
DT .us/m                 : SONIC
RHOB .g/cm3              : DENSITY
NPHI .v/v                : NEUTRON
~Parameter
# ====================================
~Ascii
   1500.000        103.836        210.192          2.565          0.312
   1500.500         52.896        215.650          2.643          0.125
   1501.000         63.587        276.599          2.459          0.328
   1501.500         90.918        264.384          2.519          0.184
   1502.000         43.261        244.486          2.241          0.294
   1502.500         62.451        233.437          2.618          0.128
   1503.000         80.733        217.519          2.474          0.098
   1503.500        109.261        242.020          2.538          0.053
   1504.000         87.821        279.786          2.402          0.123
   1504.500        100.475        207.813          2.351          0.158
   1505.000        136.810        200.645          2.372          0.229
   1505.500         53.481        229.312          2.577          0.090
   1506.000         65.729        214.566          2.606          0.218
   1506.500         73.576        203.171          2.495          0.076
   1507.000        102.368        235.976          2.312          0.277
   1507.500        112.364        276.549          2.307          0.231
   1508.000        107.056        229.099          2.638          0.207
   1508.500         44.906        214.450          2.638          0.149
   1509.000        134.185        212.807          2.474          0.123
   1509.500         65.615        242.071          2.383          0.278
   1510.000        112.479        220.455          2.597          0.254
   1510.500        102.909        242.139          2.398          0.274
   1511.000         44.022        214.731          2.654          0.101
   1511.500         52.606        267.263          2.533          0.334
   1512.000        122.029        277.498          2.496          0.295
   1512.500        130.073        207.271          2.513          0.116
   1513.000         67.370        274.637          2.354          0.229
   1513.500         41.127        211.558          2.656          0.333
   1514.000         83.842        275.892          2.354          0.167
   1514.500         71.679        266.427          2.440          0.135
   1515.000        132.198        209.712          2.382          0.345
   1515.500         96.136        207.435          2.413          0.169
   1516.000        122.912        273.097          2.288          0.340
   1516.500        104.549        246.734          2.445          0.220
   1517.000        127.709        256.439          2.438          0.233
   1517.500         48.510        255.420          2.324          0.133
   1518.000        109.836        263.368          2.607          0.246
   1518.500        105.801        200.868          2.697          0.119
   1519.000         73.084        265.597          2.214          0.058
   1519.500         63.793        219.085          2.356          0.138
   1520.000        129.566        252.761          2.408          0.213
   1520.500        121.593        242.049          2.363          0.169
   1521.000         86.236        257.264          2.486          0.195
   1521.500        110.946        220.052          2.524          0.154
   1522.000         50.163        254.124          2.668          0.096
   1522.500        135.878        219.046          2.203          0.231
   1523.000         52.557        255.814          2.205          0.159
   1523.500        131.100        232.986          2.480          0.339
   1524.000         91.540        202.106          2.338          0.306
   1524.500        139.152        271.174          2.659          0.115
   1525.000         93.671        204.916          2.595          0.242
   1525.500        106.303        240.601          2.608          0.266
   1526.000         94.217        268.150          2.437          0.145
   1526.500         97.201        263.295          2.454          0.320
   1527.000        136.180        202.540          2.243          0.137
   1527.500        128.271        228.658          2.616          0.263
   1528.000         88.069        215.497          2.645          0.333
   1528.500        119.859        260.818          2.683          0.057
   1529.000         80.421        255.948          2.698          0.274
   1529.500         67.137        260.965          2.635          0.335
   1530.000         61.077        274.185          2.399          0.141
   1530.500        129.748        204.699          2.408          0.083
   1531.000         69.206        276.703          2.556          0.150
   1531.500         40.204        234.374          2.305          0.300
   1532.000        128.077        256.049          2.484          0.225
   1532.500        131.036        226.441          2.249          0.136
   1533.000         56.581        235.662          2.563          0.260
   1533.500         80.692        273.788          2.377          0.221
   1534.000         99.510        269.720          2.627          0.052
   1534.500         78.184        243.092          2.483          0.261
   1535.000         76.573        237.981          2.204          0.127
   1535.500        106.489        247.155          2.300          0.233
   1536.000         50.174        235.627          2.593          0.136
   1536.500         44.694        272.250          2.631          0.343
   1537.000        111.936        278.111          2.296          0.239
   1537.500         88.899        240.469          2.318          0.080
   1538.000         87.971        200.995          2.277          0.067
   1538.500         91.862        267.058          2.558          0.240
   1539.000         62.907        234.801          2.585          0.070
   1539.500        121.398        232.772          2.563          0.140
   1540.000        122.659        254.847          2.299          0.140
   1540.500        137.528        271.206          2.562          0.210
   1541.000        115.954        266.097          2.336          0.321
   1541.500         88.377        251.152          2.650          0.063
   1542.000        134.602        203.001          2.594          0.293
   1542.500        124.823        253.932          2.473          0.150
   1543.000        112.523        244.342          2.432          0.346
   1543.500        133.896        205.746          2.268          0.096
   1544.000         43.518        203.074          2.511          0.230
   1544.500         90.923        265.018          2.239          0.318
   1545.000        117.793        231.174          2.462          0.086
   1545.500        130.432        204.735          2.278          0.319
   1546.000         77.232        279.478          2.405          0.160
   1546.500        135.795        269.796          2.529          0.270
   1547.000     -99999.000        239.537          2.403          0.120
   1547.500         89.140        206.105          2.383          0.111
   1548.000         80.210        200.339          2.440          0.067
   1548.500        130.303        240.761          2.351          0.121
   1549.000         86.540        205.039          2.660          0.100
   1549.500         51.749        264.846          2.255          0.120
   1550.000         52.428        234.703          2.343          0.306
   1550.500         95.669        238.555          2.384          0.223
   1551.000         63.493        277.834          2.413          0.315
   1551.500         68.014        264.753          2.548          0.084
   1552.000         65.893        224.590          2.373          0.250
   1552.500        105.492        270.697          2.249          0.180
   1553.000         55.195        256.003          2.466          0.081
   1553.500        136.309        264.748          2.575          0.287
   1554.000         58.993        208.197          2.541          0.086
   1554.500        134.660        208.097          2.304          0.273
   1555.000        113.271        231.609          2.652          0.320
   1555.500         68.974        221.482          2.233          0.196
