# LAS Format Log File (paleo mkproject mini fixture)
~Version Information
VERS.   2.0:
WRAP.   NO:
~Well
STRT .m   1500.000 :
STOP .m   1699.500 :
STEP .m   0.500 :
NULL .  -99999 :
COMP.           : PALEO FIXTURE
WELL.  A3  : WELL
DATE.  01/01/2026 00:00:00  : DATE
~Curve
DEPT .m                   : DEPTH
GR .api                   : GAMMA RAY
DT .us/m                 : SONIC
RHOB .g/cm3              : DENSITY
NPHI .v/v                : NEUTRON
~Parameter
# ====================================
~Ascii
# ...
   1668.000        135.747        230.695          2.640          0.175
   1668.500        130.303        213.829          2.453          0.243
   1669.000         84.504        248.134          2.247          0.189
   1669.500         48.875        253.438          2.581          0.128
   1670.000         56.610        220.929          2.320          0.231
   1670.500        120.585        275.406          2.235          0.161
   1671.000         46.686        279.624          2.421          0.185
   1671.500         49.377        234.505          2.644          0.196
   1672.000        130.453        228.959          2.609          0.341
   1672.500         56.917        273.060          2.513          0.280
   1673.000         48.909        248.336          2.635          0.301
   1673.500         63.641        268.916          2.571          0.261
   1674.000        136.257        207.289          2.607          0.347
   1674.500        113.565        238.414          2.601          0.058
   1675.000         91.587        235.952          2.618          0.164
   1675.500         42.837        234.350          2.425          0.288
   1676.000         94.306        230.531          2.351          0.317
   1676.500         92.042        218.953          2.368          0.245
   1677.000         63.316        213.767          2.645          0.187
   1677.500         62.258        231.846          2.684          0.139
   1678.000         59.946        270.409          2.534          0.160
   1678.500        114.857        213.020          2.454          0.092
   1679.000        134.628        217.682          2.256          0.274
   1679.500        115.064        200.801          2.456          0.083
   1680.000        117.330        210.754          2.224          0.125
   1680.500        119.262        264.819          2.493          0.259
   1681.000         51.736        203.208          2.475          0.323
   1681.500        106.041        253.974          2.203          0.096
   1682.000         73.172        262.508          2.581          0.112
   1682.500         51.009        239.411          2.327          0.318
   1683.000        130.289        220.467          2.530          0.136
   1683.500         45.342        212.481          2.454          0.072
   1684.000         50.492        258.720          2.578          0.175
   1684.500         58.094        237.718          2.229          0.160
   1685.000         49.119        269.189          2.568          0.224
   1685.500         42.244        260.799          2.530          0.327
   1686.000         82.370        229.551          2.218          0.133
   1686.500         84.509        211.521          2.619          0.204
   1687.000         43.989        233.712          2.378          0.210
   1687.500         98.894        241.764          2.256          0.307
   1688.000        105.693        257.270          2.255          0.069
   1688.500         63.995        218.461          2.284          0.098
   1689.000        101.350        217.987          2.608          0.242
   1689.500        104.059        231.569          2.685          0.293
   1690.000         54.909        251.256          2.409          0.244
   1690.500        113.784        277.037          2.598          0.132
   1691.000         52.082        240.571          2.481          0.294
   1691.500        126.878        234.771          2.314          0.106
   1692.000         55.772        202.996          2.590          0.096
   1692.500     -99999.000        270.687          2.335          0.071
   1693.000        102.384        220.202          2.510          0.242
   1693.500         47.219        256.490          2.696          0.112
   1694.000         95.561        263.278          2.207          0.296
   1694.500        107.396        226.557          2.684          0.168
   1695.000         89.449        201.488          2.312          0.086
   1695.500         64.640        221.114          2.646          0.348
   1696.000         73.078        275.605          2.239          0.175
   1696.500        134.286        230.814          2.672          0.244
   1697.000         75.343        254.871          2.437          0.214
   1697.500        104.635        221.577          2.517          0.313
   1698.000         85.896        219.345          2.364          0.090
   1698.500         42.230        274.435          2.374          0.240
   1699.000         94.801        257.244          2.303          0.158
   1699.500        115.878        200.378          2.483          0.285
