# LAS Format Log File (paleo mkproject mini fixture)
~Version Information
VERS.   2.0:
WRAP.   NO:
~Well
STRT .m   1500.000 :
STOP .m   1699.500 :
STEP .m   0.500 :
NULL .  -99999 :
COMP.           : PALEO FIXTURE
WELL.  A3  : WELL
DATE.  01/01/2026 00:00:00  : DATE
~Curve
DEPT .m                   : DEPTH
GR .api                   : GAMMA RAY
DT .us/m                 : SONIC
RHOB .g/cm3              : DENSITY
NPHI .v/v                : NEUTRON
~Parameter
# ====================================
~Ascii
# ...
   1556.000        108.894        204.011          2.456          0.292
   1556.500         93.255        209.745          2.402          0.258
   1557.000        120.180        225.513          2.685          0.133
   1557.500         61.925        225.694          2.513          0.081
   1558.000        114.226        228.512          2.518          0.154
   1558.500         98.634        242.386          2.281          0.080
   1559.000        103.824        210.000          2.560          0.108
   1559.500        114.294        253.871          2.659          0.117
   1560.000         49.909        227.139          2.235          0.104
   1560.500        114.730        273.353          2.227          0.316
   1561.000        128.544        238.981          2.459          0.089
   1561.500         89.554        242.412          2.349          0.112
   1562.000         91.664        203.187          2.527          0.125
   1562.500         94.776        275.218          2.544          0.215
   1563.000        121.570        267.743          2.223          0.281
   1563.500        129.173        277.756          2.583          0.275
   1564.000         79.172        257.683          2.646          0.131
   1564.500        104.407        222.038          2.296          0.058
   1565.000         45.977        216.806          2.257          0.250
   1565.500        108.893        275.327          2.607          0.226
   1566.000         59.833        244.393          2.644          0.327
   1566.500         65.412        224.352          2.278          0.320
   1567.000         44.425        266.927          2.502          0.178
   1567.500         82.485        274.532          2.380          0.255
   1568.000        132.510        224.814          2.342          0.063
   1568.500         99.481        264.187          2.481          0.219
   1569.000         82.916        274.096          2.402          0.321
   1569.500        125.496        253.764          2.546          0.176
   1570.000         91.281        203.177          2.298          0.291
   1570.500         71.957        250.051          2.567          0.179
   1571.000         94.543        224.536          2.374          0.165
   1571.500         79.001        265.399          2.400          0.286
   1572.000         69.188        261.449          2.280          0.320
   1572.500        135.585        231.939          2.332          0.084
   1573.000        123.237        209.707          2.273          0.282
   1573.500         93.354        250.800          2.356          0.218
   1574.000         81.990        214.332          2.227          0.274
   1574.500         74.261        216.329          2.677          0.230
   1575.000         67.519        241.302          2.367          0.287
   1575.500         71.934        255.311          2.421          0.199
   1576.000         71.910        224.261          2.223          0.247
   1576.500         46.787        221.183          2.579          0.190
   1577.000        124.251        226.247          2.301          0.093
   1577.500        114.897        243.261          2.657          0.208
   1578.000         51.383        216.405          2.468          0.059
   1578.500        130.614        250.949          2.554          0.061
   1579.000        132.384        261.706          2.567          0.266
   1579.500         62.929        232.966          2.653          0.327
   1580.000         46.814        253.668          2.240          0.214
   1580.500         65.596        271.558          2.632          0.227
   1581.000        116.708        210.074          2.474          0.286
   1581.500         40.992        271.723          2.496          0.204
   1582.000         42.319        271.690          2.368          0.156
   1582.500         97.740        265.426          2.323          0.211
   1583.000        131.605        233.982          2.614          0.100
   1583.500        102.074        250.817          2.235          0.304
   1584.000        123.479        213.841          2.201          0.121
   1584.500        122.956        206.452          2.583          0.235
   1585.000        104.795        211.295          2.334          0.175
   1585.500         70.943        200.513          2.352          0.166
   1586.000        121.093        246.231          2.575          0.300
   1586.500        130.805        275.022          2.287          0.072
   1587.000         81.089        270.112          2.202          0.062
   1587.500         87.891        265.064          2.233          0.264
   1588.000         54.920        252.700          2.283          0.292
   1588.500         48.250        273.005          2.698          0.306
   1589.000         66.136        203.768          2.477          0.245
   1589.500         52.491        277.707          2.634          0.255
   1590.000         77.439        209.824          2.543          0.057
   1590.500         83.408        238.752          2.432          0.287
   1591.000         70.178        245.829          2.579          0.103
   1591.500         67.341        215.660          2.648          0.244
   1592.000        117.590        241.914          2.468          0.277
   1592.500         69.297        262.103          2.429          0.285
   1593.000         51.794        245.099          2.555          0.062
   1593.500         81.816        255.130          2.679          0.234
   1594.000        124.529        276.014          2.532          0.313
   1594.500        107.588        219.379          2.422          0.349
   1595.000     -99999.000        217.323          2.204          0.260
   1595.500         73.987        276.656          2.614          0.173
   1596.000         84.829        257.103          2.556          0.255
   1596.500         42.094        257.884          2.377          0.173
   1597.000         44.987        237.013          2.429          0.094
   1597.500         45.164        250.827          2.627          0.082
   1598.000         45.824        247.178          2.213          0.293
   1598.500        119.063        211.057          2.346          0.290
   1599.000         58.670        241.387          2.561          0.213
   1599.500         60.568        277.733          2.478          0.148
   1600.000         98.079        215.690          2.555          0.287
   1600.500        134.195        249.694          2.514          0.189
   1601.000         88.053        221.994          2.472          0.166
   1601.500         47.792        256.560          2.679          0.264
   1602.000         96.994        216.652          2.632          0.307
   1602.500         96.870        224.818          2.207          0.224
   1603.000         41.418        224.059          2.350          0.086
   1603.500         77.692        218.920          2.208          0.116
   1604.000         58.417        255.247          2.479          0.244
   1604.500         69.105        217.375          2.636          0.230
   1605.000         46.869        221.477          2.541          0.069
   1605.500         83.131        203.844          2.346          0.059
   1606.000         77.398        242.832          2.462          0.096
   1606.500         84.301        253.233          2.241          0.106
   1607.000         71.086        231.815          2.390          0.158
   1607.500         77.739        212.787          2.524          0.206
   1608.000         46.934        271.935          2.619          0.247
   1608.500         65.999        258.182          2.531          0.095
   1609.000        138.073        271.311          2.590          0.323
   1609.500         74.654        244.623          2.668          0.101
   1610.000         76.723        251.256          2.506          0.247
   1610.500         46.626        252.934          2.434          0.167
   1611.000         47.907        229.878          2.521          0.143
   1611.500        105.277        250.651          2.542          0.207
