# LAS Format Log File (paleo mkproject mini fixture)
~Version Information
VERS.   2.0:
WRAP.   NO:
~Well
STRT .m   1500.000 :
STOP .m   1699.500 :
STEP .m   0.500 :
NULL .  -99999 :
COMP.           : PALEO FIXTURE
WELL.  A3  : WELL
DATE.  01/01/2026 00:00:00  : DATE
~Curve
DEPT .m                   : DEPTH
GR .api                   : GAMMA RAY
DT .us/m                 : SONIC
RHOB .g/cm3              : DENSITY
NPHI .v/v                : NEUTRON
~Parameter
# ====================================
~Ascii
   1500.000         50.927        277.288          2.519          0.248
   1500.500        139.424        230.192          2.588          0.206
   1501.000        139.099        256.046          2.265          0.157
   1501.500        133.274        219.311          2.239          0.267
   1502.000         75.998        200.274          2.623          0.123
   1502.500        104.668        247.654          2.432          0.127
   1503.000        124.807        224.265          2.204          0.079
   1503.500         46.707        214.471          2.598          0.113
   1504.000        128.609        262.188          2.671          0.089
   1504.500         56.119        268.187          2.433          0.063
   1505.000         62.537        215.435          2.626          0.162
   1505.500         69.792        231.246          2.577          0.265
   1506.000        104.674        214.963          2.327          0.053
   1506.500        120.039        259.953          2.626          0.270
   1507.000        125.695        278.637          2.253          0.238
   1507.500        108.627        259.322          2.499          0.083
   1508.000         97.275        243.577          2.517          0.181
   1508.500         99.546        212.913          2.642          0.141
   1509.000        119.229        213.498          2.616          0.168
   1509.500        130.536        227.682          2.580          0.072
   1510.000         65.415        241.057          2.527          0.135
   1510.500         43.361        213.822          2.307          0.130
   1511.000         48.381        205.193          2.650          0.270
   1511.500        132.827        239.607          2.528          0.219
   1512.000        102.763        203.476          2.591          0.100
   1512.500        114.563        201.235          2.235          0.088
   1513.000         87.434        259.444          2.288          0.255
   1513.500        111.538        247.674          2.634          0.120
   1514.000        106.405        224.953          2.488          0.318
   1514.500         59.337        200.502          2.416          0.291
   1515.000         48.467        277.518          2.555          0.254
   1515.500        130.185        208.756          2.365          0.314
   1516.000         45.596        252.656          2.636          0.319
   1516.500         75.720        238.770          2.318          0.071
   1517.000         50.099        211.231          2.659          0.052
   1517.500         88.517        239.024          2.461          0.313
   1518.000        130.511        241.798          2.684          0.249
   1518.500         82.359        259.983          2.476          0.053
   1519.000         86.244        217.945          2.589          0.116
   1519.500         91.263        208.945          2.525          0.233
   1520.000         80.989        230.639          2.608          0.105
   1520.500         87.253        279.882          2.585          0.178
   1521.000         94.858        255.569          2.205          0.231
   1521.500        116.883        218.284          2.619          0.325
   1522.000         95.289        255.488          2.301          0.167
   1522.500         56.508        221.005          2.597          0.140
   1523.000        126.690        237.558          2.335          0.227
   1523.500         86.315        271.102          2.358          0.208
   1524.000        118.840        265.697          2.673          0.223
   1524.500         83.085        227.686          2.313          0.115
   1525.000        114.033        267.916          2.365          0.111
   1525.500        131.729        270.758          2.501          0.200
   1526.000        112.984        278.669          2.237          0.308
   1526.500         55.551        261.058          2.477          0.294
   1527.000        139.471        236.192          2.335          0.201
   1527.500         65.277        254.906          2.550          0.245
   1528.000        123.736        214.851          2.208          0.230
   1528.500        126.827        254.048          2.368          0.112
   1529.000        104.633        212.482          2.535          0.055
   1529.500         47.839        230.498          2.338          0.052
   1530.000         50.526        212.738          2.598          0.304
   1530.500         82.942        266.382          2.397          0.180
   1531.000         98.940        202.430          2.595          0.102
   1531.500         57.777        248.783          2.625          0.118
   1532.000        114.954        223.872          2.302          0.281
   1532.500        111.777        239.583          2.699          0.317
   1533.000         68.355        222.226          2.578          0.272
   1533.500         59.683        240.307          2.694          0.066
   1534.000        129.535        247.842          2.203          0.080
   1534.500         71.822        231.969          2.227          0.281
   1535.000         84.136        213.606          2.578          0.134
   1535.500         73.130        249.912          2.442          0.273
   1536.000         66.454        247.282          2.254          0.223
   1536.500         60.921        253.656          2.344          0.199
   1537.000        111.583        278.856          2.311          0.217
   1537.500         41.419        271.737          2.472          0.199
   1538.000        126.315        222.877          2.581          0.159
   1538.500         85.023        261.557          2.420          0.101
   1539.000         78.789        275.805          2.211          0.350
   1539.500        100.335        244.220          2.694          0.323
   1540.000        106.888        208.353          2.573          0.202
   1540.500        126.933        234.382          2.423          0.347
   1541.000         45.389        212.831          2.518          0.088
   1541.500         46.892        205.092          2.409          0.174
   1542.000         71.861        265.489          2.473          0.158
   1542.500        115.060        247.637          2.516          0.263
   1543.000         71.313        243.859          2.380          0.347
   1543.500        108.083        206.385          2.412          0.256
   1544.000        119.592        239.106          2.480          0.058
   1544.500         92.172        228.627          2.646          0.070
   1545.000         85.533        263.361          2.441          0.231
   1545.500        109.634        229.424          2.578          0.087
   1546.000         51.855        232.075          2.331          0.289
   1546.500     -99999.000        235.311          2.647          0.315
   1547.000         61.243        211.850          2.333          0.191
   1547.500         79.082        203.800          2.574          0.207
   1548.000         65.484        202.073          2.202          0.174
   1548.500         98.320        222.951          2.400          0.114
   1549.000         56.103        209.968          2.690          0.099
   1549.500        101.768        202.293          2.216          0.163
   1550.000         58.547        253.331          2.624          0.120
   1550.500         76.369        203.321          2.219          0.236
   1551.000         62.223        269.661          2.454          0.339
   1551.500        122.927        278.719          2.680          0.258
   1552.000         43.736        222.879          2.459          0.228
   1552.500        101.225        246.573          2.631          0.101
   1553.000         83.887        225.045          2.667          0.054
   1553.500         68.890        279.596          2.269          0.282
   1554.000         78.411        273.075          2.491          0.111
   1554.500        114.012        229.342          2.581          0.181
   1555.000         42.469        240.467          2.592          0.165
   1555.500         81.511        245.426          2.688          0.053
