# LAS Format Log File (paleo mkproject mini fixture)
~Version Information
VERS.   2.0:
WRAP.   NO:
~Well
STRT .m   1500.000 :
STOP .m   1699.500 :
STEP .m   0.500 :
NULL .  -99999 :
COMP.           : PALEO FIXTURE
WELL.  A3  : WELL
DATE.  01/01/2026 00:00:00  : DATE
~Curve
DEPT .m                   : DEPTH
GR .api                   : GAMMA RAY
DT .us/m                 : SONIC
RHOB .g/cm3              : DENSITY
NPHI .v/v                : NEUTRON
~Parameter
# ====================================
~Ascii
# ...
   1668.000         92.850        241.654          2.345          0.338
   1668.500        107.367        241.545          2.665          0.170
   1669.000         92.704        248.307          2.536          0.060
   1669.500         83.795        204.571          2.276          0.237
   1670.000        102.594        261.308          2.619          0.174
   1670.500        110.657        205.466          2.242          0.308
   1671.000         42.096        255.959          2.234          0.303
   1671.500        127.840        261.768          2.261          0.094
   1672.000         97.140        235.899          2.526          0.270
   1672.500        117.264        258.957          2.525          0.101
   1673.000        107.309        246.069          2.480          0.102
   1673.500        137.066        210.927          2.657          0.089
   1674.000         96.897        200.684          2.228          0.090
   1674.500         99.526        255.457          2.630          0.285
   1675.000         49.716        246.199          2.319          0.312
   1675.500         92.747        224.671          2.643          0.258
   1676.000        127.645        219.279          2.460          0.209
   1676.500         46.088        230.517          2.480          0.248
   1677.000        132.940        279.770          2.227          0.311
   1677.500        139.339        265.229          2.321          0.146
   1678.000        114.285        238.662          2.243          0.130
   1678.500         55.655        256.798          2.535          0.342
   1679.000        116.598        221.064          2.327          0.301
   1679.500         78.232        259.441          2.433          0.213
   1680.000         74.588        264.168          2.608          0.282
   1680.500        130.740        219.068          2.498          0.285
   1681.000         50.055        210.221          2.611          0.315
   1681.500         61.500        273.755          2.578          0.238
   1682.000        112.948        214.492          2.310          0.131
   1682.500         71.415        229.207          2.545          0.273
   1683.000         66.169        268.241          2.653          0.126
   1683.500         85.649        209.231          2.434          0.131
   1684.000        114.128        256.689          2.549          0.182
   1684.500         69.059        241.202          2.538          0.278
   1685.000         75.047        231.983          2.332          0.051
   1685.500         85.371        216.535          2.477          0.132
   1686.000        137.014        261.172          2.689          0.091
   1686.500        100.113        226.151          2.242          0.261
   1687.000         57.790        249.166          2.553          0.259
   1687.500        127.291        230.945          2.696          0.124
   1688.000        108.362        216.714          2.476          0.065
   1688.500        119.823        267.260          2.551          0.078
   1689.000         60.247        233.367          2.459          0.074
   1689.500        103.715        227.348          2.313          0.135
   1690.000        116.550        245.448          2.258          0.173
   1690.500         55.995        254.846          2.698          0.281
   1691.000         86.763        279.023          2.655          0.286
   1691.500        126.387        235.239          2.506          0.245
   1692.000     -99999.000        252.260          2.312          0.051
   1692.500        106.945        250.196          2.333          0.218
   1693.000         99.795        243.141          2.678          0.186
   1693.500         40.592        264.184          2.661          0.303
   1694.000         87.709        222.047          2.499          0.238
   1694.500         58.525        259.396          2.677          0.216
   1695.000         54.548        235.459          2.492          0.202
   1695.500         58.693        261.684          2.241          0.168
   1696.000         84.425        279.192          2.372          0.323
   1696.500        131.443        246.782          2.333          0.088
   1697.000         77.588        248.231          2.681          0.251
   1697.500        111.676        207.642          2.431          0.338
   1698.000         86.937        241.584          2.466          0.271
   1698.500         49.739        256.786          2.232          0.312
   1699.000         73.302        262.120          2.294          0.114
   1699.500        101.074        203.640          2.218          0.316
