# LAS Format Log File (paleo mkproject mini fixture)
~Version Information
VERS.   2.0:
WRAP.   NO:
~Well
STRT .m   1500.000 :
STOP .m   1699.500 :
STEP .m   0.500 :
NULL .  -99999 :
COMP.           : PALEO FIXTURE
WELL.  A3  : WELL
DATE.  01/01/2026 00:00:00  : DATE
~Curve
DEPT .m                   : DEPTH
GR .api                   : GAMMA RAY
DT .us/m                 : SONIC
RHOB .g/cm3              : DENSITY
NPHI .v/v                : NEUTRON
~Parameter
# ====================================
~Ascii
# ...
   1612.000        111.910        260.667          2.539          0.297
   1612.500         86.244        228.121          2.634          0.295
   1613.000         95.490        226.097          2.596          0.284
   1613.500        138.022        249.590          2.588          0.082
   1614.000         51.840        266.211          2.341          0.327
   1614.500         91.303        259.300          2.420          0.143
   1615.000         89.299        242.223          2.606          0.087
   1615.500         97.062        202.582          2.277          0.163
   1616.000         68.810        235.104          2.579          0.281
   1616.500        133.391        221.948          2.528          0.244
   1617.000         70.134        239.183          2.560          0.240
   1617.500         81.085        208.189          2.445          0.250
   1618.000        126.811        250.733          2.317          0.091
   1618.500         67.979        226.464          2.483          0.181
   1619.000        129.870        271.574          2.533          0.069
   1619.500         82.037        217.397          2.644          0.080
   1620.000        100.288        227.659          2.351          0.267
   1620.500         53.180        253.169          2.445          0.068
   1621.000        130.205        202.669          2.506          0.211
   1621.500        103.879        228.612          2.478          0.214
   1622.000         92.883        266.611          2.558          0.072
   1622.500         68.488        267.305          2.553          0.233
   1623.000        121.414        219.408          2.213          0.201
   1623.500         81.331        242.664          2.454          0.217
   1624.000         56.186        209.493          2.239          0.206
   1624.500        133.538        254.039          2.267          0.298
   1625.000         61.092        227.405          2.482          0.251
   1625.500         98.628        217.804          2.321          0.139
   1626.000        108.490        234.380          2.462          0.088
   1626.500        126.850        253.456          2.211          0.060
   1627.000        132.913        205.947          2.580          0.329
   1627.500        108.263        264.703          2.418          0.195
   1628.000         53.533        250.519          2.404          0.234
   1628.500        104.580        235.564          2.522          0.074
   1629.000         65.371        242.991          2.558          0.144
   1629.500         49.744        201.457          2.512          0.147
   1630.000         99.255        253.329          2.698          0.140
   1630.500        119.273        215.296          2.685          0.131
   1631.000         50.536        250.167          2.591          0.328
   1631.500         68.339        228.582          2.645          0.189
   1632.000         76.544        279.399          2.276          0.066
   1632.500        138.609        207.501          2.387          0.144
   1633.000         62.803        237.776          2.328          0.312
   1633.500        133.827        244.016          2.481          0.321
   1634.000         57.989        201.493          2.212          0.111
   1634.500         64.154        261.956          2.352          0.123
   1635.000         77.641        269.792          2.229          0.110
   1635.500         59.250        278.118          2.643          0.335
   1636.000         76.624        243.545          2.563          0.202
   1636.500         50.113        258.356          2.689          0.162
   1637.000         90.341        258.859          2.412          0.304
   1637.500        119.662        208.672          2.562          0.097
   1638.000         44.688        215.661          2.219          0.068
   1638.500        122.076        261.318          2.235          0.119
   1639.000        134.771        241.296          2.497          0.218
   1639.500         70.878        275.881          2.318          0.125
   1640.000         72.364        269.120          2.243          0.125
   1640.500         95.771        235.383          2.401          0.193
   1641.000        102.122        252.091          2.449          0.306
   1641.500         68.224        237.370          2.485          0.073
   1642.000         86.538        211.370          2.212          0.259
   1642.500         95.811        240.012          2.510          0.312
   1643.000         59.659        279.906          2.423          0.328
   1643.500     -99999.000        236.232          2.220          0.214
   1644.000         93.313        207.635          2.581          0.271
   1644.500         57.051        227.557          2.354          0.318
   1645.000         59.193        223.578          2.338          0.294
   1645.500        101.686        274.140          2.643          0.157
   1646.000         90.973        230.330          2.218          0.203
   1646.500         95.271        272.253          2.346          0.229
   1647.000         57.205        253.780          2.447          0.266
   1647.500         72.760        229.393          2.451          0.118
   1648.000        122.477        216.902          2.343          0.269
   1648.500        115.830        269.754          2.392          0.348
   1649.000         84.726        232.723          2.401          0.272
   1649.500        137.061        214.691          2.253          0.091
   1650.000         56.281        232.295          2.346          0.221
   1650.500        107.863        258.190          2.423          0.331
   1651.000         88.679        207.659          2.657          0.219
   1651.500        130.159        257.341          2.234          0.193
   1652.000         41.211        269.816          2.558          0.250
   1652.500         51.813        277.799          2.558          0.213
   1653.000         93.233        201.695          2.478          0.261
   1653.500        125.808        234.261          2.377          0.278
   1654.000        100.215        266.126          2.477          0.298
   1654.500        113.180        225.928          2.323          0.315
   1655.000         93.552        228.801          2.649          0.101
   1655.500        129.694        206.978          2.680          0.139
   1656.000        124.112        276.250          2.482          0.258
   1656.500        136.274        272.034          2.366          0.253
   1657.000         49.546        228.804          2.698          0.102
   1657.500         73.187        276.630          2.373          0.314
   1658.000         65.341        248.570          2.554          0.184
   1658.500        137.965        232.683          2.681          0.341
   1659.000         79.623        242.392          2.613          0.287
   1659.500        107.092        278.961          2.641          0.194
   1660.000        131.714        279.827          2.491          0.199
   1660.500        101.430        226.550          2.322          0.299
   1661.000         54.435        266.111          2.561          0.251
   1661.500         95.397        279.326          2.338          0.330
   1662.000         80.163        230.124          2.633          0.096
   1662.500         69.903        209.421          2.625          0.058
   1663.000         90.632        267.366          2.605          0.263
   1663.500        109.024        267.692          2.210          0.237
   1664.000        110.490        217.921          2.576          0.148
   1664.500         40.431        229.190          2.425          0.268
   1665.000         44.607        279.425          2.429          0.276
   1665.500        119.575        253.630          2.611          0.101
   1666.000         59.121        235.038          2.391          0.112
   1666.500         57.615        200.860          2.275          0.104
   1667.000        106.252        256.410          2.549          0.130
   1667.500         93.092        201.326          2.224          0.085
